[
  {
    "name": "Duck & Waffle",
    "cuisine": "European",
    "price": 4,
    "position": {
      "lat": 51.5161743,
      "lng": -0.0809401999999864
    }
  },
  {
    "name": "Dinner by Heston Blumenthal",
    "cuisine": "European",
    "price": 5,
    "position": {
      "lat": 51.502161,
      "lng": -0.159963999999945
    }
  },
  {
    "name": "Burger & Lobster",
    "cuisine": "Burger",
    "price": 3,
    "position": {
      "lat": 51.5015951,
      "lng": -0.159827199999995
    }
  },
  {
    "name": "The Ledbury",
    "cuisine": "European",
    "price": 5,
    "position": {
      "lat": 51.516655,
      "lng": -0.200063
    }
  },
  {
    "name": "Gymkhana",
    "cuisine": "Indian",
    "price": 3,
    "position": {
      "lat": 51.5084912,
      "lng": -0.141472399999998
    }
  },
  {
    "name": "Dishoom",
    "cuisine": "Indian",
    "price": 2,
    "position": {
      "lat": 51.512988,
      "lng": -0.139728999999988
    }
  },
  {
    "name": "Restaurant Gordon Ramsay",
    "cuisine": "European",
    "price": 5,
    "position": {
      "lat": 51.4854109,
      "lng": -0.162041799999997
    }
  },
  {
    "name": "Le Gavroche",
    "cuisine": "French",
    "price": 5,
    "position": {
      "lat": 51.5112543,
      "lng": -0.155167000000006
    }
  },
  {
    "name": "MEATliquor",
    "cuisine": "Burger",
    "price": 2,
    "position": {
      "lat": 51.5154532,
      "lng": -0.148599699999977
    }
  },
  {
    "name": "Dabbous",
    "cuisine": "European",
    "price": 3,
    "position": {
      "lat": 51.5201496,
      "lng": -0.13511010000002
    }
  },
  {
    "name": "The Clove Club",
    "cuisine": "European",
    "price": 5,
    "position": {
      "lat": 51.5270436,
      "lng": -0.079158199999938
    }
  },
  {
    "name": "Blacklock",
    "cuisine": "Chops",
    "price": 3,
    "position": {
      "lat": 51.5117668,
      "lng": -0.134622700000023
    }
  },
  {
    "name": "Barrafina",
    "cuisine": "Tapas",
    "price": 3,
    "position": {
      "lat": 51.514229,
      "lng": -0.132763999999952
    }
  },
  {
    "name": "Hawksmoor Seven Dials",
    "cuisine": "Steak",
    "price": 3,
    "position": {
      "lat": 51.5134343,
      "lng": -0.125801700000011
    }
  },
  {
    "name": "Pollen Street Social",
    "cuisine": "European",
    "price": 4,
    "position": {
      "lat": 51.5133756,
      "lng": -0.14232370000002
    }
  },
  {
    "name": "Social Eating House",
    "cuisine": "European",
    "price": 3,
    "position": {
      "lat": 51.513833,
      "lng": -0.136715999999979
    }
  },
  {
    "name": "The Barbary",
    "cuisine": "European",
    "price": 3,
    "position": {
      "lat": 51.514434,
      "lng": -0.12624900000003
    }
  },
  {
    "name": "Ceviche Soho",
    "cuisine": "South American",
    "price": 3,
    "position": {
      "lat": 51.5136915,
      "lng": -0.131448399999954
    }
  },
  {
    "name": "Honey & Co.",
    "cuisine": "Middle Eastern",
    "price": 2,
    "position": {
      "lat": 51.523774,
      "lng": -0.140851999999995
    }
  },
  {
    "name": "Chin Chin",
    "cuisine": "Chinese",
    "price": 2,
    "position": {
      "lat": -37.815614,
      "lng": 144.970377
    }
  },
  {
    "name": "MoVida",
    "cuisine": "Tapas",
    "price": 2,
    "position": {
      "lat": -37.8166265,
      "lng": 144.9691308
    }
  },
  {
    "name": "Vue de monde",
    "cuisine": "French",
    "price": 4,
    "position": {
      "lat": -37.818542,
      "lng": 144.95751
    }
  },
  {
    "name": "CUMULUS INC.",
    "cuisine": "Australian",
    "price": 3,
    "position": {
      "lat": -37.8149202,
      "lng": 144.9731286
    }
  },
  {
    "name": "Rockpool Bar & Grill",
    "cuisine": "Steak",
    "price": 4,
    "position": {
      "lat": -37.8218482,
      "lng": 144.96027
    }
  },
  {
    "name": "Hardware Societe",
    "cuisine": "Cafe",
    "price": 2,
    "position": {
      "lat": -37.8119737,
      "lng": 144.9606149
    }
  },
  {
    "name": "Maha",
    "cuisine": "Middle Eastern",
    "price": 4,
    "position": {
      "lat": -37.8181937,
      "lng": 144.9625532
    }
  },
  {
    "name": "Mamasita",
    "cuisine": "Mexican",
    "price": 2,
    "position": {
      "lat": -37.813806,
      "lng": 144.973484
    }
  },
  {
    "name": "Melba Restaurant",
    "cuisine": "Cafe",
    "price": 2,
    "position": {
      "lat": -37.8205722,
      "lng": 144.9659258
    }
  },
  {
    "name": "Pellegrini's Espresso Bar",
    "cuisine": "Cafe",
    "price": 2,
    "position": {
      "lat": -37.8116998,
      "lng": 144.9712002
    }
  },
  {
    "name": "Brunetti Carlton",
    "cuisine": "Cafe",
    "price": 2,
    "position": {
      "lat": -37.7981596,
      "lng": 144.9676125
    }
  },
  {
    "name": "Higher Ground",
    "cuisine": "Cafe",
    "price": 2,
    "position": {
      "lat": -37.8157243,
      "lng": 144.9535254
    }
  },
  {
    "name": "Manchester Press",
    "cuisine": "Bagels",
    "price": 1,
    "position": {
      "lat": -37.8138766,
      "lng": 144.9621256
    }
  },
  {
    "name": "8bit",
    "cuisine": "Burger",
    "price": 2,
    "position": {
      "lat": -37.8125376,
      "lng": 144.9648743
    }
  },
  {
    "name": "8bit",
    "cuisine": "Burger",
    "price": 2,
    "position": {
      "lat": -37.8158384,
      "lng": 144.9621969
    }
  },
  {
    "name": "Dead Man Espresso",
    "cuisine": "Cafe",
    "price": 2,
    "position": {
      "lat": -37.8295334,
      "lng": 144.9601687
    }
  },
  {
    "name": "Seven Seeds Specialty Coffee",
    "cuisine": "Cafe",
    "price": 2,
    "position": {
      "lat": -37.802872,
      "lng": 144.959121
    }
  },
  {
    "name": "Proud Mary",
    "cuisine": "Cafe",
    "price": 2,
    "position": {
      "lat": -37.8024177,
      "lng": 144.9853181
    }
  },
  {
    "name": "Crif Dogs",
    "cuisine": "Hot Dog",
    "price": 2,
    "position": {
      "lat": 40.7271155,
      "lng": -73.9837628
    }
  },
  {
    "name": "Russ & Daughters",
    "cuisine": "Bagels",
    "price": 1,
    "position": {
      "lat": 40.7225003,
      "lng": -73.9883144
    }
  },
  {
    "name": "Ess-a-Bagel",
    "cuisine": "Bagels",
    "price": 1,
    "position": {
      "lat": 40.7561191,
      "lng": -73.9703639
    }
  },
  {
    "name": "DŌ",
    "cuisine": "Dessert",
    "price": 2,
    "position": {
      "lat": 40.7291156,
      "lng": -73.9983454
    }
  },
  {
    "name": "Clinton St. Baking Company",
    "cuisine": "Pancakes",
    "price": 2,
    "position": {
      "lat": 40.721264,
      "lng": -73.9838497
    }
  },
  {
    "name": "Momofuku Noodle Bar",
    "cuisine": "Fusion",
    "price": 2,
    "position": {
      "lat": 40.7292372,
      "lng": -73.9845058
    }
  },
  {
    "name": "Shake Shack",
    "cuisine": "Burger",
    "price": 1,
    "position": {
      "lat": 40.7413394,
      "lng": -73.9883421
    }
  },
  {
    "name": "The Halal Guys",
    "cuisine": "Middle Eastern",
    "price": 1,
    "position": {
      "lat": 40.7618261,
      "lng": -73.9793211
    }
  },
  {
    "name": "Katz's Delicatessen",
    "cuisine": "Pastrami",
    "price": 2,
    "position": {
      "lat": 40.7223184,
      "lng": -73.9873298
    }
  },
  {
    "name": "Gray's Papaya",
    "cuisine": "Hot Dog",
    "price": 1,
    "position": {
      "lat": 40.7783578,
      "lng": -73.9815721
    }
  },
  {
    "name": "Lombardi's",
    "cuisine": "Pizza",
    "price": 2,
    "position": {
      "lat": 40.72157,
      "lng": -73.9956368
    }
  },
  {
    "name": "Joe's Pizza",
    "cuisine": "Pizza",
    "price": 1,
    "position": {
      "lat": 40.7305876,
      "lng": -74.002141
    }
  },
  {
    "name": "Grimaldi's Pizza",
    "cuisine": "Pizza",
    "price": 1,
    "position": {
      "lat": 40.702604,
      "lng": -73.9932197
    }
  },
  {
    "name": "Dominique Ansel Bakery",
    "cuisine": "Cafe",
    "price": 2,
    "position": {
      "lat": 40.725161,
      "lng": -74.0029621
    }
  },
  {
    "name": "Peter Luger Steak House",
    "cuisine": "Steak",
    "price": 3,
    "position": {
      "lat": 40.709819,
      "lng": -73.962467
    }
  },
  {
    "name": "The Spotted Pig",
    "cuisine": "Burger",
    "price": 2,
    "position": {
      "lat": 40.7356067,
      "lng": -74.0066706
    }
  },
  {
    "name": "Hometown Bar-B-Que",
    "cuisine": "BBQ",
    "price": 2,
    "position": {
      "lat": 40.6749246,
      "lng": -74.0161622
    }
  },
  {
    "name": "Ivan Ramen",
    "cuisine": "Ramen",
    "price": 2,
    "position": {
      "lat": 40.7205785,
      "lng": -73.9845031
    }
  },
  {
    "name": "Ippudo NY",
    "cuisine": "Ramen",
    "price": 2,
    "position": {
      "lat": 40.730948,
      "lng": -73.990287
    }
  },
  {
    "name": "Totto Ramen",
    "cuisine": "Ramen",
    "price": 2,
    "position": {
      "lat": 40.7643497,
      "lng": -73.9876143
    }
  },
  {
    "name": "Veselka",
    "cuisine": "Eastern European",
    "price": 3,
    "position": {
      "lat": 40.7290258,
      "lng": -73.9871207
    }
  },
  {
    "name": "Eileen's Special Cheesecake",
    "cuisine": "Cake",
    "price": 2,
    "position": {
      "lat": 40.721531,
      "lng": -73.997083
    }
  },
  {
    "name": "Junior's Restaurant and Bakery",
    "cuisine": "Dessert",
    "price": 2,
    "position": {
      "lat": 40.7581038,
      "lng": -73.9866278
    }
  },
  {
    "name": "Absolute Bagels",
    "cuisine": "Bagels",
    "price": 1,
    "position": {
      "lat": 40.8025115,
      "lng": -73.9674407
    }
  },
  {
    "name": "Baileys",
    "cuisine": "Fish & Chips",
    "price": "",
    "position": {
      "lat": 51.480357,
      "lng": -0.204041999999959
    }
  },
  {
    "name": "The Five Fields",
    "cuisine": "European",
    "price": 3,
    "position": {
      "lat": 51.4916908,
      "lng": -0.161325900000065
    }
  },
  {
    "name": "The Andover Arms",
    "cuisine": "European",
    "price": 3,
    "position": {
      "lat": 51.4968187,
      "lng": -0.232674399999951
    }
  },
  {
    "name": "Hawksmoor Spitalfields",
    "cuisine": "Steak",
    "price": 3,
    "position": {
      "lat": 51.5214383,
      "lng": -0.0758445999999822
    }
  },
  {
    "name": "Café de Flore",
    "cuisine": "French",
    "price": 2,
    "position": {
      "lat": 48.853889,
      "lng": 2.33249999999998
    }
  },
  {
    "name": "Fromagerie Laurent Dubois",
    "cuisine": "Cheese",
    "price": 2,
    "position": {
      "lat": 48.849806,
      "lng": 2.34839999999997
    }
  },
  {
    "name": "Taco Casa Seminyak",
    "cuisine": "Mexican",
    "price": 1,
    "position": {
      "lat": -8.6727278,
      "lng": 115.1598082
    }
  },
  {
    "name": "Merah Putih",
    "cuisine": "Indonesian",
    "price": 2,
    "position": {
      "lat": -8.676927,
      "lng": 115.154491
    }
  },
  {
    "name": "Breeze Restaurant",
    "cuisine": "Indonesian",
    "price": 2,
    "position": {
      "lat": -8.6833319,
      "lng": 115.1521237
    }
  },
  {
    "name": "Sisterfields Cafe",
    "cuisine": "Brunch",
    "price": 2,
    "position": {
      "lat": -8.6830608,
      "lng": 115.1575116
    }
  },
  {
    "name": "Naughty Nuri's Warung Seminyak",
    "cuisine": "BBQ",
    "price": 2,
    "position": {
      "lat": -8.6775312,
      "lng": 115.1675802
    }
  },
  {
    "name": "WACKO BURGER CAFE",
    "cuisine": "Burger",
    "price": 2,
    "position": {
      "lat": -8.6898062,
      "lng": 115.1627654
    }
  },
  {
    "name": "Grain Bali",
    "cuisine": "Brunch",
    "price": 2,
    "position": {
      "lat": -8.6949405,
      "lng": 115.168393
    }
  },
  {
    "name": "Cuca",
    "cuisine": "Tapas",
    "price": 3,
    "position": {
      "lat": -8.772757,
      "lng": 115.169318
    }
  },
  {
    "name": "Bumbu Bali 1",
    "cuisine": "Indonesian",
    "price": 2,
    "position": {
      "lat": -8.773757,
      "lng": 115.2232256
    }
  },
  {
    "name": "Fat Chow",
    "cuisine": "Southeast Asian",
    "price": 2,
    "position": {
      "lat": -8.718388,
      "lng": 115.170162
    }
  },
  {
    "name": "Burger Joys",
    "cuisine": "Burger",
    "price": 2,
    "position": {
      "lat": 22.2779893,
      "lng": 114.1705321
    }
  },
  {
    "name": "The Butchers Club Burger",
    "cuisine": "Burger",
    "price": 2,
    "position": {
      "lat": 22.2835501,
      "lng": 114.1544613
    }
  },
  {
    "name": "Espuma",
    "cuisine": "Spanish",
    "price": 2,
    "position": {
      "lat": 22.2995891,
      "lng": 114.1745545
    }
  },
  {
    "name": "Espuma",
    "cuisine": "Spanish",
    "price": 2,
    "position": {
      "lat": 22.2807962,
      "lng": 114.1560348
    }
  },
  {
    "name": "Yardbird",
    "cuisine": "Yakitori",
    "price": 3,
    "position": {
      "lat": 22.2872468,
      "lng": 114.1490811
    }
  },
  {
    "name": "Little Bao",
    "cuisine": "Chinese",
    "price": 2,
    "position": {
      "lat": 22.282986,
      "lng": 114.151621
    }
  },
  {
    "name": "Serendipity 3",
    "cuisine": "Dessert",
    "price": 2,
    "position": {
      "lat": 40.761848,
      "lng": -73.964894
    }
  },
  {
    "name": "Beauty & Essex",
    "cuisine": "American",
    "price": 3,
    "position": {
      "lat": 40.720418,
      "lng": -73.986885
    }
  },
  {
    "name": "Best Bagel & Coffee",
    "cuisine": "Bagels",
    "price": 1,
    "position": {
      "lat": 40.7522479,
      "lng": -73.991065
    }
  },
  {
    "name": "Jane",
    "cuisine": "American",
    "price": 2,
    "position": {
      "lat": 40.7273681,
      "lng": -74.0002463
    }
  },
  {
    "name": "Café Habana",
    "cuisine": "Mexican",
    "price": 2,
    "position": {
      "lat": 40.7229197,
      "lng": -73.9941941
    }
  },
  {
    "name": "Max Brenner Chocolate Bar",
    "cuisine": "Dessert",
    "price": 2,
    "position": {
      "lat": 40.7343795,
      "lng": -73.9910879
    }
  },
  {
    "name": "Two Little Red Hens",
    "cuisine": "Cake",
    "price": 2,
    "position": {
      "lat": 40.777528,
      "lng": -73.9517855
    }
  },
  {
    "name": "Ferrara Bakery & Cafe",
    "cuisine": "Cake",
    "price": 2,
    "position": {
      "lat": 40.7190764,
      "lng": -73.9970864
    }
  },
  {
    "name": "Mah-Ze-Dahr Bakery",
    "cuisine": "Confectionary",
    "price": 1,
    "position": {
      "lat": 40.735039,
      "lng": -74.0000184
    }
  },
  {
    "name": "L&B Spumoni Gardens",
    "cuisine": "Italian",
    "price": 2,
    "position": {
      "lat": 40.594712,
      "lng": -73.981313
    }
  },
  {
    "name": "Jacob's Pickles",
    "cuisine": "American",
    "price": 2,
    "position": {
      "lat": 40.7866273,
      "lng": -73.9755359
    }
  },
  {
    "name": "Dinosaur Bar-B-Que",
    "cuisine": "BBQ",
    "price": 2,
    "position": {
      "lat": 40.8180235,
      "lng": -73.9608431
    }
  },
  {
    "name": "Upland",
    "cuisine": "Burger",
    "price": 2,
    "position": {
      "lat": 40.7417865,
      "lng": -73.98477
    }
  },
  {
    "name": "burger joint",
    "cuisine": "Burger",
    "price": 2,
    "position": {
      "lat": 40.7643119,
      "lng": -73.9785888
    }
  },
  {
    "name": "Emily",
    "cuisine": "Pizza",
    "price": 2,
    "position": {
      "lat": 40.6835694,
      "lng": -73.9664327
    }
  },
  {
    "name": "J.G. Melon",
    "cuisine": "Burger",
    "price": 2,
    "position": {
      "lat": 40.729102,
      "lng": -74.001413
    }
  },
  {
    "name": "JG Melon",
    "cuisine": "Burger",
    "price": 2,
    "position": {
      "lat": 40.771057,
      "lng": -73.959335
    }
  },
  {
    "name": "Virginia's",
    "cuisine": "Burger",
    "price": 2,
    "position": {
      "lat": 40.7266747,
      "lng": -73.9772465
    }
  },
  {
    "name": "Pegu Club",
    "cuisine": "Bar",
    "price": 3,
    "position": {
      "lat": 40.7265753,
      "lng": -73.9998614
    }
  },
  {
    "name": "The Dead Rabbit Grocery and Grog",
    "cuisine": "Bar",
    "price": 3,
    "position": {
      "lat": 40.7033,
      "lng": -74.011034
    }
  },
  {
    "name": "The Long Island Bar",
    "cuisine": "Bar",
    "price": 3,
    "position": {
      "lat": 40.6906278,
      "lng": -73.9964058
    }
  },
  {
    "name": "Minetta Tavern",
    "cuisine": "American",
    "price": 3,
    "position": {
      "lat": 40.7299922,
      "lng": -74.0006201
    }
  },
  {
    "name": "Attaboy",
    "cuisine": "Bar",
    "price": 3,
    "position": {
      "lat": 40.718882,
      "lng": -73.99138
    }
  },
  {
    "name": "Black Tap",
    "cuisine": "Burger",
    "price": 3,
    "position": {
      "lat": 40.7634619,
      "lng": -73.979784
    }
  },
  {
    "name": "Dante NYC",
    "cuisine": "Bar",
    "price": 3,
    "position": {
      "lat": 40.728878,
      "lng": -74.001662
    }
  },
  {
    "name": "Village Park Restaurant",
    "cuisine": "Malaysian",
    "price": 2,
    "position": {
      "lat": 3.1378386,
      "lng": 101.6233015
    }
  },
  {
    "name": "Pudu Roast Pork",
    "cuisine": "Chinese",
    "price": 2,
    "position": {
      "lat": 3.1392363,
      "lng": 101.7110771
    }
  },
  {
    "name": "Char Siew Yoong Restaurant",
    "cuisine": "Chinese",
    "price": 2,
    "position": {
      "lat": 3.12068,
      "lng": 101.7299062
    }
  },
  {
    "name": "Den",
    "cuisine": "Japanese",
    "price": 3,
    "position": {
      "lat": 35.6731762,
      "lng": 139.7127216
    }
  },
  {
    "name": "Butagumi",
    "cuisine": "Tonkatsu",
    "price": 2,
    "position": {
      "lat": 35.6609321,
      "lng": 139.7221145
    }
  },
  {
    "name": "Udon Maruka",
    "cuisine": "Udon",
    "price": 1,
    "position": {
      "lat": 35.6966988,
      "lng": 139.7601228
    }
  },
  {
    "name": "Fūunji",
    "cuisine": "Ramen",
    "price": 1,
    "position": {
      "lat": 35.6868449,
      "lng": 139.6966459
    }
  },
  {
    "name": "Ramen Yamaguchi",
    "cuisine": "Ramen",
    "price": 1,
    "position": {
      "lat": 35.7100471,
      "lng": 139.7139836
    }
  },
  {
    "name": "Tsuta Ramen",
    "cuisine": "Ramen",
    "price": 1,
    "position": {
      "lat": 35.7329136,
      "lng": 139.7405771
    }
  },
  {
    "name": "Harajuku Gyozaro",
    "cuisine": "Gyoza",
    "price": 1,
    "position": {
      "lat": 35.6675434,
      "lng": 139.7061475
    }
  },
  {
    "name": "Gyoza no Fukuho",
    "cuisine": "Gyoza",
    "price": 1,
    "position": {
      "lat": 35.689144,
      "lng": 139.7088855
    }
  },
  {
    "name": "Gyoza no Fukuhou",
    "cuisine": "Gyoza",
    "price": 1,
    "position": {
      "lat": 35.6550507,
      "lng": 139.7929019
    }
  },
  {
    "name": "Kameido Gyoza Main Store",
    "cuisine": "Gyoza",
    "price": 1,
    "position": {
      "lat": 35.6985849,
      "lng": 139.826198
    }
  },
  {
    "name": "Echikatsu",
    "cuisine": "Sukiyaki",
    "price": 2,
    "position": {
      "lat": 35.7071508,
      "lng": 139.7661343
    }
  },
  {
    "name": "今半万窯 新宿サザンタワー店 - Imahan Odakyu Southern",
    "cuisine": "Sukiyaki",
    "price": 3,
    "position": {
      "lat": 35.6865367,
      "lng": 139.7002592
    }
  },
  {
    "name": "Ningyouchou imahan",
    "cuisine": "Sukiyaki",
    "price": 3,
    "position": {
      "lat": 35.7301299,
      "lng": 139.7102259
    }
  },
  {
    "name": "Rokkasen",
    "cuisine": "Yakiniku",
    "price": 3,
    "position": {
      "lat": 35.6933679,
      "lng": 139.6988554
    }
  },
  {
    "name": "Nabezo",
    "cuisine": "Shabu Shabu/Sukiyaki",
    "price": 2,
    "position": {
      "lat": 35.69127,
      "lng": 139.705325
    }
  },
  {
    "name": "Nabezo Shinjuku Sanchome Store",
    "cuisine": "Shabu Shabu/Sukiyaki",
    "price": 2,
    "position": {
      "lat": 35.6911434,
      "lng": 139.7036224
    }
  },
  {
    "name": "Nabezo",
    "cuisine": "Shabu Shabu/Sukiyaki",
    "price": 2,
    "position": {
      "lat": 35.6910035,
      "lng": 139.7026051
    }
  },
  {
    "name": "Nabezo",
    "cuisine": "Shabu Shabu/Sukiyaki",
    "price": 2,
    "position": {
      "lat": 35.6613189,
      "lng": 139.6975484
    }
  },
  {
    "name": "Nabezo",
    "cuisine": "Shabu Shabu/Sukiyaki",
    "price": 2,
    "position": {
      "lat": 35.6611708,
      "lng": 139.7003273
    }
  },
  {
    "name": "Nabezo",
    "cuisine": "Shabu Shabu/Sukiyaki",
    "price": 2,
    "position": {
      "lat": 35.6929665,
      "lng": 139.6989594
    }
  },
  {
    "name": "Azabu Shokudo",
    "cuisine": "Omurice",
    "price": 2,
    "position": {
      "lat": 35.6581802,
      "lng": 139.7204065
    }
  },
  {
    "name": "Chamorro",
    "cuisine": "Omurice",
    "price": 2,
    "position": {
      "lat": 35.6460376,
      "lng": 139.707669
    }
  },
  {
    "name": "grill GRAND",
    "cuisine": "Omurice",
    "price": 2,
    "position": {
      "lat": 35.71695,
      "lng": 139.797549
    }
  },
  {
    "name": "Renga-Tei",
    "cuisine": "Omurice",
    "price": 2,
    "position": {
      "lat": 35.6727515,
      "lng": 139.7660125
    }
  },
  {
    "name": "Restaurant Azuma",
    "cuisine": "Omurice",
    "price": 2,
    "position": {
      "lat": 35.709561,
      "lng": 139.8040298
    }
  },
  {
    "name": "Shiseido Parlour",
    "cuisine": "Omurice",
    "price": 3,
    "position": {
      "lat": 35.668556,
      "lng": 139.7618966
    }
  },
  {
    "name": "Taimeiken",
    "cuisine": "Omurice",
    "price": 2,
    "position": {
      "lat": 35.6825696,
      "lng": 139.7755883
    }
  },
  {
    "name": "Tsutsui",
    "cuisine": "Omurice",
    "price": 2,
    "position": {
      "lat": 35.6780454,
      "lng": 139.7819163
    }
  },
  {
    "name": "Tonkatsu Tonki",
    "cuisine": "Tonkatsu",
    "price": 2,
    "position": {
      "lat": 35.6336071,
      "lng": 139.7142945
    }
  },
  {
    "name": "Birdland",
    "cuisine": "Yakitori",
    "price": 3,
    "position": {
      "lat": 35.672785,
      "lng": 139.763893
    }
  },
  {
    "name": "Yakitori Imai",
    "cuisine": "Yakitori",
    "price": 3,
    "position": {
      "lat": 35.6717626,
      "lng": 139.713911
    }
  },
  {
    "name": "Toritama Honkan",
    "cuisine": "Yakitori",
    "price": 3,
    "position": {
      "lat": 35.6443657,
      "lng": 139.7218812
    }
  },
  {
    "name": "Kin-No-Torikara",
    "cuisine": "Karaage",
    "price": 1,
    "position": {
      "lat": 35.6603157,
      "lng": 139.6992245
    }
  },
  {
    "name": "Kagoshima Cuisine Izakaya Bar Furusato",
    "cuisine": "Karaage",
    "price": 2,
    "position": {
      "lat": 35.6864461,
      "lng": 139.72866
    }
  },
  {
    "name": "Curry Bondy",
    "cuisine": "Japanese Curry",
    "price": 2,
    "position": {
      "lat": 35.6956312,
      "lng": 139.7573772
    }
  },
  {
    "name": "Manten",
    "cuisine": "Japanese Curry",
    "price": 2,
    "position": {
      "lat": 35.6982662,
      "lng": 139.7575225
    }
  },
  {
    "name": "Aoyama Flower Market",
    "cuisine": "Cafe",
    "price": 2,
    "position": {
      "lat": 35.664778,
      "lng": 139.7128465
    }
  },
  {
    "name": "Café de Oriente Palacio Real",
    "cuisine": "Cafe",
    "price": 2,
    "position": {
      "lat": 40.4177101,
      "lng": -3.71150549999993
    }
  },
  {
    "name": "La Mallorquina",
    "cuisine": "Confectionary",
    "price": 2,
    "position": {
      "lat": 40.4166912,
      "lng": -3.70480910000003
    }
  },
  {
    "name": "HanSo Café",
    "cuisine": "Cafe",
    "price": 2,
    "position": {
      "lat": 40.423876,
      "lng": -3.70554900000002
    }
  },
  {
    "name": "Café Federal",
    "cuisine": "Cafe",
    "price": 2,
    "position": {
      "lat": 40.4270304,
      "lng": -3.70930120000003
    }
  },
  {
    "name": "Restaurante Lakasa",
    "cuisine": "Spanish",
    "price": 3,
    "position": {
      "lat": 40.4409316,
      "lng": -3.70074039999997
    }
  },
  {
    "name": "Sala de Despiece",
    "cuisine": "Spanish",
    "price": 2,
    "position": {
      "lat": 40.4379265,
      "lng": -3.69948339999996
    }
  },
  {
    "name": "Botin",
    "cuisine": "Spanish",
    "price": 2,
    "position": {
      "lat": 40.4141769,
      "lng": -3.70795469999996
    }
  },
  {
    "name": "LA BOLA",
    "cuisine": "Spanish",
    "price": 2,
    "position": {
      "lat": 40.4200394,
      "lng": -3.71047750000002
    }
  },
  {
    "name": "TWO SCHMUCKS",
    "cuisine": "Bar",
    "price": 3,
    "position": {
      "lat": 41.3831854,
      "lng": 2.16523499999994
    }
  },
  {
    "name": "Viana Barcelona",
    "cuisine": "Spanish",
    "price": 2,
    "position": {
      "lat": 41.3797992,
      "lng": 2.17622170000004
    }
  },
  {
    "name": "El Nacional",
    "cuisine": "Spanish",
    "price": 2,
    "position": {
      "lat": 41.3905397,
      "lng": 2.1682869
    }
  },
  {
    "name": "La Alcoba Azul - Tapas",
    "cuisine": "Spanish",
    "price": 2,
    "position": {
      "lat": 41.3829045,
      "lng": 2.1754823
    }
  },
  {
    "name": "Alsur Cafè",
    "cuisine": "Cafe",
    "price": 2,
    "position": {
      "lat": 41.3865099,
      "lng": 2.18003899999997
    }
  },
  {
    "name": "El Xampanyet",
    "cuisine": "Spanish",
    "price": 2,
    "position": {
      "lat": 41.3845384,
      "lng": 2.18167990000006
    }
  },
  {
    "name": "Paradiso",
    "cuisine": "Bar",
    "price": 2,
    "position": {
      "lat": 41.3836923,
      "lng": 2.18371339999999
    }
  },
  {
    "name": "BlackTail",
    "cuisine": "Bar",
    "price": 2,
    "position": {
      "lat": 40.7044542,
      "lng": -74.0173461
    }
  },
  {
    "name": "Mace",
    "cuisine": "Bar",
    "price": 2,
    "position": {
      "lat": 40.7290342,
      "lng": -73.9809139
    }
  },
  {
    "name": "Clover Club",
    "cuisine": "Bar",
    "price": 2,
    "position": {
      "lat": 40.684589,
      "lng": -73.9921382
    }
  },
  {
    "name": "Bar Goto",
    "cuisine": "Bar",
    "price": 2,
    "position": {
      "lat": 40.7227802,
      "lng": -73.9898899
    }
  },
  {
    "name": "Amor y Amargo",
    "cuisine": "Bar",
    "price": 2,
    "position": {
      "lat": 40.7257277,
      "lng": -73.9842721
    }
  },
  {
    "name": "The Aviary NYC",
    "cuisine": "Bar",
    "price": 2,
    "position": {
      "lat": 40.7688396,
      "lng": -73.9830036
    }
  },
  {
    "name": "Slowly Shirley",
    "cuisine": "Bar",
    "price": 2,
    "position": {
      "lat": 40.7348414,
      "lng": -73.9996325
    }
  },
  {
    "name": "Levain Bakery",
    "cuisine": "Cookie",
    "price": 1,
    "position": {
      "lat": 40.7799589,
      "lng": -73.9802984
    }
  },
  {
    "name": "Big Gay Ice Cream Shop",
    "cuisine": "Ice Cream",
    "price": 2,
    "position": {
      "lat": 40.733262,
      "lng": -74.0032476
    }
  },
  {
    "name": "Mamoun's Falafel",
    "cuisine": "Falafel",
    "price": 1,
    "position": {
      "lat": 40.7302678,
      "lng": -74.0004169
    }
  },
  {
    "name": "Gino e Toto Sorbillo",
    "cuisine": "Pizza",
    "price": 1,
    "position": {
      "lat": 40.8503854,
      "lng": 14.2553028
    }
  },
  {
    "name": "L'Antica Pizzeria da Michele",
    "cuisine": "Pizza",
    "price": 1,
    "position": {
      "lat": 40.8497563,
      "lng": 14.2633002
    }
  },
  {
    "name": "Katana Kitten",
    "cuisine": "Bar",
    "price": 2,
    "position": {
      "lat": 40.7342547,
      "lng": -74.0064852
    }
  },
  {
    "name": "Drink Kong",
    "cuisine": "Bar",
    "price": 2,
    "position": {
      "lat": 41.895136,
      "lng": 12.4978609
    }
  },
  {
    "name": "Restaurant Mirazur",
    "cuisine": "European",
    "price": 5,
    "position": {
      "lat": 43.7859895,
      "lng": 7.5274138
    }
  },
  {
    "name": "Le Calandrе",
    "cuisine": "Italian",
    "price": 4,
    "position": {
      "lat": 45.4216782,
      "lng": 11.8096161
    }
  },
  {
    "name": "Eleven Madison Park",
    "cuisine": "American",
    "price": 5,
    "position": {
      "lat": 40.7416519,
      "lng": -73.9872353
    }
  },
  {
    "name": "The Chef's Table at Brooklyn Fare",
    "cuisine": "Fusion",
    "price": 4,
    "position": {
      "lat": 40.7561213,
      "lng": -73.9965897
    }
  },
  {
    "name": "Momofuku Ko",
    "cuisine": "Asian Innovative",
    "price": 4,
    "position": {
      "lat": 40.7248346,
      "lng": -73.9916846
    }
  },
  {
    "name": "Ichiran",
    "cuisine": "Ramen",
    "price": 2,
    "position": {
      "lat": 40.748267,
      "lng": -73.990714
    }
  },
  {
    "name": "Au Pied de Cochon",
    "cuisine": "French",
    "price": 2,
    "position": {
      "lat": 48.8635176,
      "lng": 2.3437221
    }
  },
  {
    "name": "La Fontaine de Mars",
    "cuisine": "Steak",
    "price": 2,
    "position": {
      "lat": 48.8583982,
      "lng": 2.3025519
    }
  },
  {
    "name": "Le Relais de L’Entrecôte",
    "cuisine": "Steak",
    "price": 2,
    "position": {
      "lat": 48.8545954,
      "lng": 2.3328204
    }
  },
  {
    "name": "Le Relais de l’Entrecôte",
    "cuisine": "Steak",
    "price": 2,
    "position": {
      "lat": 48.868142,
      "lng": 2.3027971
    }
  },
  {
    "name": "Septime",
    "cuisine": "French",
    "price": 4,
    "position": {
      "lat": 48.8535773,
      "lng": 2.3808692
    }
  },
  {
    "name": "Epicure",
    "cuisine": "French",
    "price": 5,
    "position": {
      "lat": 48.8717373,
      "lng": 2.3148528
    }
  },
  {
    "name": "PavYllon",
    "cuisine": "French",
    "price": 5,
    "position": {
      "lat": 48.8662481,
      "lng": 2.3164756
    }
  },
  {
    "name": "Little Red Door",
    "cuisine": "Bar",
    "price": 2,
    "position": {
      "lat": 48.8636089,
      "lng": 2.3636311
    }
  },
  {
    "name": "Chez André",
    "cuisine": "French",
    "price": 3,
    "position": {
      "lat": 48.8677688,
      "lng": 2.3027935
    }
  },
  {
    "name": "Fauchon",
    "cuisine": "Cafe",
    "price": 2,
    "position": {
      "lat": 48.8703455,
      "lng": 2.3236932
    }
  },
  {
    "name": "Arpège",
    "cuisine": "French",
    "price": 5,
    "position": {
      "lat": 48.8557424,
      "lng": 2.3170492
    }
  },
  {
    "name": "La Jacobine",
    "cuisine": "French",
    "price": 3,
    "position": {
      "lat": 48.8533819,
      "lng": 2.3389252
    }
  },
  {
    "name": "Meatballs for the People",
    "cuisine": "Meatballs",
    "price": 2,
    "position": {
      "lat": 59.3145785,
      "lng": 18.0814279
    }
  },
  {
    "name": "Oaxen Krog & Oaxen Slip",
    "cuisine": "Swedish",
    "price": 3,
    "position": {
      "lat": 59.3223377,
      "lng": 18.1017094
    }
  },
  {
    "name": "Daniel",
    "cuisine": "European",
    "price": 4,
    "position": {
      "lat": 40.7668083,
      "lng": -73.9675769
    }
  },
  {
    "name": "Noma",
    "cuisine": "Nordic",
    "price": 5,
    "position": {
      "lat": 55.6828273,
      "lng": 12.6104808
    }
  },
  {
    "name": "Geranium",
    "cuisine": "Nordic",
    "price": 5,
    "position": {
      "lat": 55.703748,
      "lng": 12.5721913
    }
  },
  {
    "name": "Alchemist",
    "cuisine": "Nordic",
    "price": 5,
    "position": {
      "lat": 55.6937161,
      "lng": 12.6137381
    }
  },
  {
    "name": "Saltimporten Canteen",
    "cuisine": "Nordic",
    "price": 2,
    "position": {
      "lat": 55.6160964,
      "lng": 12.9971189
    }
  },
  {
    "name": "Malmö Saluhall",
    "cuisine": "Assorted",
    "price": 2,
    "position": {
      "lat": 55.6079296,
      "lng": 12.9909635
    }
  },
  {
    "name": "Spoonery",
    "cuisine": "Nordic",
    "price": 2,
    "position": {
      "lat": 55.6066662,
      "lng": 12.9970553
    }
  },
  {
    "name": "Opopoppa",
    "cuisine": "Pizza",
    "price": 2,
    "position": {
      "lat": 55.5915723,
      "lng": 13.0096624
    }
  },
  {
    "name": "Reffen - Copenhagen Street Food",
    "cuisine": "Assorted",
    "price": 2,
    "position": {
      "lat": 55.693638,
      "lng": 12.6083187
    }
  },
  {
    "name": "Kvarnen",
    "cuisine": "Nordic",
    "price": 3,
    "position": {
      "lat": 59.3148071,
      "lng": 18.0742035
    }
  },
  {
    "name": "Bärenwirt",
    "cuisine": "Fried Chicken",
    "price": 3,
    "position": {
      "lat": 47.805949,
      "lng": 13.035837
    }
  },
  {
    "name": "Figlmüller – Restaurant Bäckerstraße",
    "cuisine": "Schnitzel",
    "price": 3,
    "position": {
      "lat": 48.2092674,
      "lng": 16.3755428
    }
  },
  {
    "name": "Café Hawelka",
    "cuisine": "Cafe",
    "price": 2,
    "position": {
      "lat": 48.2079066,
      "lng": 16.3696972
    }
  },
  {
    "name": "Plachutta Wollzeile",
    "cuisine": "Taffelspitz",
    "price": 3,
    "position": {
      "lat": 48.207521,
      "lng": 16.378672
    }
  },
  {
    "name": "Bratislava Flagship",
    "cuisine": "Slovakian",
    "price": 2,
    "position": {
      "lat": 48.1461111,
      "lng": 17.1102778
    }
  },
  {
    "name": "Ildikó Konyhája",
    "cuisine": "Hungarian",
    "price": 2,
    "position": {
      "lat": 47.4996152,
      "lng": 19.0398442
    }
  },
  {
    "name": "Menza Étterem és Kávéház",
    "cuisine": "Hungarian",
    "price": 3,
    "position": {
      "lat": 47.5039639,
      "lng": 19.0628165
    }
  },
  {
    "name": "Paprika Vendéglő",
    "cuisine": "Hungarian",
    "price": 2,
    "position": {
      "lat": 47.5088683,
      "lng": 19.0831081
    }
  },
  {
    "name": "Hungarikum Bisztró",
    "cuisine": "Hungarian",
    "price": 2,
    "position": {
      "lat": 47.5034835,
      "lng": 19.0479192
    }
  },
  {
    "name": "Born and Bred",
    "cuisine": "Beef Omakase",
    "price": 4,
    "position": {
      "lat": 37.5667249,
      "lng": 127.0445221
    }
  },
  {
    "name": "Myeongdong Kyoja",
    "cuisine": "Korean",
    "price": 1,
    "position": {
      "lat": 37.5625266,
      "lng": 126.985609
    }
  },
  {
    "name": "Onjujeong",
    "cuisine": "Korean",
    "price": 1,
    "position": {
      "lat": 37.5686417,
      "lng": 126.9997423
    }
  },
  {
    "name": "Zaneuk",
    "cuisine": "Korean Fusion",
    "price": 3,
    "position": {
      "lat": 37.3988886,
      "lng": 126.6524815
    }
  },
  {
    "name": "Sukiyabashi Jiro",
    "cuisine": "Sushi",
    "price": 4,
    "position": {
      "lat": 35.6727404,
      "lng": 139.7639378
    }
  },
  {
    "name": "Sushi Saito",
    "cuisine": "Sushi",
    "price": 4,
    "position": {
      "lat": 35.6653768,
      "lng": 139.7395884
    }
  },
  {
    "name": "Tokyo Saryo",
    "cuisine": "Cafe",
    "price": 1,
    "position": {
      "lat": 35.6392222,
      "lng": 139.6699722
    }
  },
  {
    "name": "Higashiya Ginza",
    "cuisine": "Cafe",
    "price": 2,
    "position": {
      "lat": 35.6742784,
      "lng": 139.76795
    }
  },
  {
    "name": "Omotesandō Chachanoma",
    "cuisine": "Cafe",
    "price": 1,
    "position": {
      "lat": 35.6662772,
      "lng": 139.7069953
    }
  },
  {
    "name": "L’Effervescence",
    "cuisine": "French",
    "price": 4,
    "position": {
      "lat": 35.660214,
      "lng": 139.719405
    }
  },
  {
    "name": "Nakiryu",
    "cuisine": "Ramen",
    "price": 2,
    "position": {
      "lat": 35.7286762,
      "lng": 139.7303427
    }
  },
  {
    "name": "Ramen Ibuki",
    "cuisine": "Ramen",
    "price": 2,
    "position": {
      "lat": 35.7726934,
      "lng": 139.6925444
    }
  },
  {
    "name": "Tsukemen Gonokami Seisakusho Shinjuku",
    "cuisine": "Ramen",
    "price": 2,
    "position": {
      "lat": 35.687351,
      "lng": 139.7038616
    }
  },
  {
    "name": "Agezuki",
    "cuisine": "Tonkatsu",
    "price": 2,
    "position": {
      "lat": 35.7013236,
      "lng": 139.7407675
    }
  },
  {
    "name": "Tonkatsu Maisen",
    "cuisine": "Tonkatsu",
    "price": 2,
    "position": {
      "lat": 35.6811671,
      "lng": 139.7686211
    }
  },
  {
    "name": "Tonkatsu Narikura",
    "cuisine": "Tonkatsu",
    "price": 3,
    "position": {
      "lat": 35.7108406,
      "lng": 139.7038456
    }
  },
  {
    "name": "Tonkatsu Marugo",
    "cuisine": "Tonkatsu",
    "price": 2,
    "position": {
      "lat": 35.6991387,
      "lng": 139.7697273
    }
  },
  {
    "name": "Kyourakutei Soba",
    "cuisine": "Soba",
    "price": 2,
    "position": {
      "lat": 35.7007762,
      "lng": 139.7395083
    }
  },
  {
    "name": "Honmura-an",
    "cuisine": "Soba",
    "price": 2,
    "position": {
      "lat": 35.7045926,
      "lng": 139.6117455
    }
  },
  {
    "name": "Kanda Matsuya",
    "cuisine": "Soba",
    "price": 2,
    "position": {
      "lat": 35.6961148,
      "lng": 139.7687883
    }
  },
  {
    "name": "Kanda Yabu Soba",
    "cuisine": "Soba",
    "price": 2,
    "position": {
      "lat": 35.6969904,
      "lng": 139.7686797
    }
  },
  {
    "name": "Bar Benfiddich",
    "cuisine": "Bar",
    "price": 3,
    "position": {
      "lat": 35.6894823,
      "lng": 139.6966117
    }
  },
  {
    "name": "The SG Club",
    "cuisine": "Bar",
    "price": 3,
    "position": {
      "lat": 35.6642434,
      "lng": 139.6992314
    }
  },
  {
    "name": "Floreria Atlántico",
    "cuisine": "Bar",
    "price": 3,
    "position": {
      "lat": -34.5915325,
      "lng": -58.3797127
    }
  },
  {
    "name": "Don Julio",
    "cuisine": "Steak",
    "price": 3,
    "position": {
      "lat": -34.5863219,
      "lng": -58.4242047
    }
  },
  {
    "name": "Sidecar",
    "cuisine": "Bar",
    "price": 2,
    "position": {
      "lat": 28.5331496,
      "lng": 77.2415693
    }
  },
  {
    "name": "Zuma",
    "cuisine": "Bar",
    "price": 3,
    "position": {
      "lat": 25.2139508,
      "lng": 55.2836236
    }
  },
  {
    "name": "Galaxy Bar",
    "cuisine": "Bar",
    "price": 3,
    "position": {
      "lat": 25.2130556,
      "lng": 55.2824863
    }
  },
  {
    "name": "The Bulgari Bar",
    "cuisine": "Bar",
    "price": 3,
    "position": {
      "lat": 25.210496,
      "lng": 55.2356225
    }
  },
  {
    "name": "Locale Firenze",
    "cuisine": "Bar",
    "price": 3,
    "position": {
      "lat": 43.7710816,
      "lng": 11.2599975
    }
  },
  {
    "name": "Cochinchina",
    "cuisine": "Bar",
    "price": 2,
    "position": {
      "lat": -34.590345,
      "lng": -58.4290036
    }
  },
  {
    "name": "Himkok",
    "cuisine": "Bar",
    "price": 3,
    "position": {
      "lat": 59.914292,
      "lng": 10.7515299
    }
  },
  {
    "name": "Röda Huset",
    "cuisine": "Bar",
    "price": 3,
    "position": {
      "lat": 59.3327505,
      "lng": 18.0661043
    }
  },
  {
    "name": "Lucy's Flower Shop",
    "cuisine": "Bar",
    "price": 3,
    "position": {
      "lat": 59.3366156,
      "lng": 18.0720358
    }
  },
  {
    "name": "28 HongKong Street",
    "cuisine": "Bar",
    "price": 3,
    "position": {
      "lat": 1.2875578,
      "lng": 103.8469262
    }
  },
  {
    "name": "MO BAR",
    "cuisine": "Bar",
    "price": 3,
    "position": {
      "lat": 1.29063,
      "lng": 103.85844
    }
  },
  {
    "name": "Republic Bar",
    "cuisine": "Bar",
    "price": 3,
    "position": {
      "lat": 1.2909687,
      "lng": 103.8601209
    }
  },
  {
    "name": "Atlas",
    "cuisine": "Bar",
    "price": 3,
    "position": {
      "lat": 1.3001138,
      "lng": 103.8577754
    }
  },
  {
    "name": "Jigger & Pony",
    "cuisine": "Bar",
    "price": 3,
    "position": {
      "lat": 1.275032,
      "lng": 103.843551
    }
  },
  {
    "name": "Native",
    "cuisine": "Bar",
    "price": 3,
    "position": {
      "lat": 1.2801256,
      "lng": 103.8468629
    }
  },
  {
    "name": "The Other Room",
    "cuisine": "Bar",
    "price": 3,
    "position": {
      "lat": 1.3053584,
      "lng": 103.8328308
    }
  },
  {
    "name": "Operation Dagger",
    "cuisine": "Bar",
    "price": 3,
    "position": {
      "lat": 1.2814496,
      "lng": 103.8457866
    }
  },
  {
    "name": "Employees Only",
    "cuisine": "Bar",
    "price": 3,
    "position": {
      "lat": 1.2820556,
      "lng": 103.8476771
    }
  },
  {
    "name": "Barbary Coast",
    "cuisine": "Bar",
    "price": 3,
    "position": {
      "lat": 1.2862632,
      "lng": 103.8485319
    }
  },
  {
    "name": "Manhattan",
    "cuisine": "Bar",
    "price": 3,
    "position": {
      "lat": 1.3047647,
      "lng": 103.8251569
    }
  },
  {
    "name": "13% Wine Bistro",
    "cuisine": "Bar",
    "price": 3,
    "position": {
      "lat": 1.2811794,
      "lng": 103.8480579
    }
  },
  {
    "name": "Chache Di Hatti",
    "cuisine": "Indian",
    "price": 1,
    "position": {
      "lat": 28.6823531,
      "lng": 77.2058097
    }
  },
  {
    "name": "earth us",
    "cuisine": "Cafe",
    "price": 2,
    "position": {
      "lat": 37.5641146,
      "lng": 126.92324
    }
  },
  {
    "name": "earth us",
    "cuisine": "Cafe",
    "price": 2,
    "position": {
      "lat": 37.5853063,
      "lng": 126.9712236
    }
  },
  {
    "name": "Bleecker Street Pizza",
    "cuisine": "Pizza",
    "price": 1,
    "position": {
      "lat": 40.732198,
      "lng": -74.0034014
    }
  },
  {
    "name": "Bo & Bun",
    "cuisine": "Southeast Asian",
    "price": 2,
    "position": {
      "lat": -8.6871688,
      "lng": 115.1673431
    }
  },
  {
    "name": "Mamasan Bali",
    "cuisine": "Southeast Asian",
    "price": 2,
    "position": {
      "lat": -8.682115,
      "lng": 115.164686
    }
  },
  {
    "name": "Revolver Espresso",
    "cuisine": "Cafe",
    "price": 2,
    "position": {
      "lat": -8.6842587,
      "lng": 115.1579571
    }
  },
  {
    "name": "Potato Head Beach Club",
    "cuisine": "Bar",
    "price": 2,
    "position": {
      "lat": -8.6794353,
      "lng": 115.1499342
    }
  },
  {
    "name": "Made's Warung",
    "cuisine": "Indonesian",
    "price": 2,
    "position": {
      "lat": -8.6894097,
      "lng": 115.1677522
    }
  },
  {
    "name": "40 Thieves",
    "cuisine": "Bar",
    "price": 2,
    "position": {
      "lat": -8.6717968,
      "lng": 115.1630868
    }
  },
  {
    "name": "Gyozanomise Okei",
    "cuisine": "Gyoza",
    "price": 1,
    "position": {
      "lat": 35.6988831,
      "lng": 139.7444899
    }
  },
  {
    "name": "Tresind Studio",
    "cuisine": "Indian",
    "price": 4,
    "position": {
      "lat": 25.114235,
      "lng": 55.1396174
    }
  },
  {
    "name": "ORFALI BROS BISTRO RESTAURANT",
    "cuisine": "Fusion",
    "price": 3,
    "position": {
      "lat": 25.2186594,
      "lng": 55.2612762
    }
  },
  {
    "name": "Fyn",
    "cuisine": "South African",
    "price": 4,
    "position": {
      "lat": -33.924723,
      "lng": 18.4218031
    }
  },
  {
    "name": "La Colombe",
    "cuisine": "South African",
    "price": 4,
    "position": {
      "lat": -34.0151706,
      "lng": 18.4033113
    }
  },
  {
    "name": "Cause Effect Cocktail Kitchen",
    "cuisine": "Bar",
    "price": 2,
    "position": {
      "lat": -33.9052339,
      "lng": 18.4192207
    }
  },
  {
    "name": "Bo-Kaap Kombuis",
    "cuisine": "Cape Malay",
    "price": 2,
    "position": {
      "lat": -33.9174676,
      "lng": 18.4129092
    }
  },
  {
    "name": "Kloof Street House",
    "cuisine": "South African",
    "price": 3,
    "position": {
      "lat": -33.9282119,
      "lng": 18.4120917
    }
  },
  {
    "name": "Boragó",
    "cuisine": "South American",
    "price": 4,
    "position": {
      "lat": -33.3825101,
      "lng": -70.5840919
    }
  },
  {
    "name": "Astrid y Gastón",
    "cuisine": "South American",
    "price": 4,
    "position": {
      "lat": -12.0965121,
      "lng": -77.0349005
    }
  },
  {
    "name": "Maido",
    "cuisine": "Nikkei",
    "price": 4,
    "position": {
      "lat": -12.1254202,
      "lng": -77.0305744
    }
  },
  {
    "name": "Central",
    "cuisine": "South American",
    "price": 4,
    "position": {
      "lat": -12.1526483,
      "lng": -77.0224579
    }
  },
  {
    "name": "The Fat Duck",
    "cuisine": "Innovative",
    "price": 4,
    "position": {
      "lat": 51.507914,
      "lng": -0.701748
    }
  },
  {
    "name": "The Hinds Head",
    "cuisine": "British",
    "price": 3,
    "position": {
      "lat": 51.508193,
      "lng": -0.702106
    }
  },
  {
    "name": "Sühring",
    "cuisine": "German",
    "price": 4,
    "position": {
      "lat": 13.7108133,
      "lng": 100.5454871
    }
  },
  {
    "name": "Wattana Panich",
    "cuisine": "Thai",
    "price": 1,
    "position": {
      "lat": 13.7341664,
      "lng": 100.5876833
    }
  },
  {
    "name": "Jeh O Chula",
    "cuisine": "Tom Yum Kung",
    "price": 1,
    "position": {
      "lat": 13.7424996,
      "lng": 100.5225179
    }
  },
  {
    "name": "Pe Aor Tom Yum Kung Noodle",
    "cuisine": "Tom Yum Kung",
    "price": 1,
    "position": {
      "lat": 13.7558844,
      "lng": 100.5294348
    }
  },
  {
    "name": "Phed Mark",
    "cuisine": "Pad Kra Pow",
    "price": 1,
    "position": {
      "lat": 13.7202176,
      "lng": 100.5838945
    }
  },
  {
    "name": "Rung Rueang Pork Noodle (Left Shop)",
    "cuisine": "Thai",
    "price": 1,
    "position": {
      "lat": 13.7283097,
      "lng": 100.570491
    }
  },
  {
    "name": "BKK Social Club",
    "cuisine": "Bar",
    "price": 2,
    "position": {
      "lat": 13.7117702,
      "lng": 100.5101179
    }
  },
  {
    "name": "Vesper",
    "cuisine": "Bar",
    "price": 2,
    "position": {
      "lat": 13.7270527,
      "lng": 100.5334589
    }
  },
  {
    "name": "Mahaniyom Cocktail Bar",
    "cuisine": "Bar",
    "price": 2,
    "position": {
      "lat": 13.7290995,
      "lng": 100.5183098
    }
  },
  {
    "name": "Ann Guay Tiew Kua Gai",
    "cuisine": "Thai",
    "price": 1,
    "position": {
      "lat": 13.7467096,
      "lng": 100.5111996
    }
  },
  {
    "name": "VCR",
    "cuisine": "Cafe",
    "price": 2,
    "position": {
      "lat": 3.1432498,
      "lng": 101.7054472
    }
  },
  {
    "name": "Heun Kee Claypot Chicken Rice",
    "cuisine": "Chinese",
    "price": 2,
    "position": {
      "lat": 3.1327637,
      "lng": 101.7162791
    }
  },
  {
    "name": "Restoran Nasi Kandar Pelita",
    "cuisine": "Nasi Kandar",
    "price": 2,
    "position": {
      "lat": 3.1580021,
      "lng": 101.7082467
    }
  },
  {
    "name": "Bar Trigona",
    "cuisine": "Bar",
    "price": 2,
    "position": {
      "lat": 3.1583605,
      "lng": 101.7136801
    }
  },
  {
    "name": "Zén",
    "cuisine": "Nordic",
    "price": 4,
    "position": {
      "lat": 1.2794687,
      "lng": 103.8403607
    }
  },
  {
    "name": "Mama's On Washington Square",
    "cuisine": "American Breakfast",
    "price": 2,
    "position": {
      "lat": 37.8015323,
      "lng": -122.4095835
    }
  },
  {
    "name": "Mourad",
    "cuisine": "Moroccan",
    "price": 3,
    "position": {
      "lat": 37.7867734,
      "lng": -122.3999748
    }
  },
  {
    "name": "Liholiho Yacht Club",
    "cuisine": "Fusion",
    "price": 3,
    "position": {
      "lat": 37.7882263,
      "lng": -122.4146051
    }
  }
]